[
  {
    "name": "Belagavi Police Station",
    "lat": 15.8497,
    "lng": 74.4977
  },
  {
    "name": "Ballari City Police",
    "lat": 15.1394,
    "lng": 76.9214
  },
  {
    "name": "Bengaluru Central Police",
    "lat": 12.9716,
    "lng": 77.5946
  },
  {
    "name": "Bidar Town Station",
    "lat": 17.9133,
    "lng": 77.5301
  },
  {
    "name": "Kalaburagi Police HQ",
    "lat": 17.3297,
    "lng": 76.8343
  },
  {
    "name": "Mysuru North Police",
    "lat": 12.2958,
    "lng": 76.6394
  }
]